,City,Cloudiness,Country,Date,Humidity,Lat,Lng,Max Temp,Wind Speed
0,nizhneangarsk,0,RU,1562102634,54,55.78,109.57,59.12,5.44
1,albany,75,US,1562102103,57,42.65,-73.75,84.99,8.05
2,rikitea,100,PF,1562102108,85,-23.12,-134.97,66.5,19.95
3,hilo,20,US,1562101989,54,19.71,-155.08,84.2,10.29
4,saraza,100,PH,1562102635,70,8.74,117.78,81.62,3.53
5,chuy,100,UY,1562102636,74,-33.69,-53.46,53.18,16.58
6,panlaitan,100,PH,1562102588,74,12.12,119.85,85.04,15.05
7,marrakesh,0,MA,1562102636,47,31.63,-7.99,75.2,8.05
8,georgetown,40,GY,1562102117,74,6.8,-58.16,84.2,16.11
9,tuktoyaktuk,75,CA,1562102121,76,69.44,-133.03,50.0,14.99
10,vao,100,EE,1562102637,96,59.1,26.19,55.34,9.82
11,katsuura,75,JP,1562102637,94,33.93,134.5,71.6,3.36
12,ushuaia,40,AR,1562102018,96,-54.81,-68.31,32.0,13.87
13,puerto ayora,75,EC,1562102570,61,-0.74,-90.35,78.8,19.46
14,provideniya,90,RU,1562102404,100,64.42,-173.23,46.4,4.47
15,nanortalik,97,GL,1562102638,96,60.14,-45.24,35.18,1.54
16,hermanus,99,ZA,1562102638,76,-34.42,19.24,64.0,10.0
17,mareeba,20,AU,1562102639,87,-16.99,145.42,60.8,8.05
18,eureka,1,US,1562102616,68,40.8,-124.16,66.2,17.22
19,yellowknife,90,CA,1562102639,87,62.45,-114.38,51.8,8.05
20,haines junction,100,CA,1562102640,61,60.75,-137.51,65.6,6.2
21,kahului,90,US,1562102640,100,20.89,-156.47,84.99,5.82
22,busselton,0,AU,1562102116,75,-33.64,115.35,44.01,12.28
23,alice springs,0,AU,1562102640,48,-23.7,133.88,44.6,8.05
24,tiksi,100,RU,1562102606,93,71.64,128.87,36.8,11.3
25,lewistown,40,US,1562102641,52,40.39,-90.15,93.2,5.82
26,nikolskoye,75,RU,1562102641,82,59.7,30.79,60.8,2.24
27,cape town,75,ZA,1562102405,93,-33.93,18.42,57.0,4.7
28,avarua,16,CK,1562102642,53,-21.21,-159.78,73.4,17.22
29,pacifica,75,US,1562102554,82,37.61,-122.49,73.4,10.29
30,pacific grove,1,US,1562102643,63,36.62,-121.92,84.0,12.75
31,lasa,0,CY,1562102643,56,34.92,32.53,80.6,4.7
32,tasiilaq,100,GL,1562101936,80,65.61,-37.64,41.0,42.5
33,ust-tsilma,100,RU,1562102644,98,65.44,52.15,58.4,6.44
34,barreirinha,93,BR,1562102644,92,-2.8,-57.07,78.92,3.6
35,port hardy,40,CA,1562102644,77,50.7,-127.42,60.8,10.29
36,punta arenas,90,CL,1562102564,80,-53.16,-70.91,35.6,9.17
37,atar,0,MR,1562102597,9,20.52,-13.05,103.4,7.34
38,east london,67,ZA,1562102493,28,-33.02,27.91,62.72,9.42
39,coos bay,90,US,1562102645,63,43.37,-124.22,73.0,10.29
40,ponta do sol,0,BR,1562102645,54,-20.63,-46.0,66.32,4.47
41,atuona,7,PF,1562102646,76,-9.8,-139.03,80.72,13.6
42,copiapo,75,CL,1562102646,66,-27.37,-70.33,55.4,13.87
43,ionesti,0,RO,1562102646,73,44.85,24.23,77.0,2.24
44,codrington,90,AU,1562102624,100,-28.95,153.24,54.0,2.95
45,raton,20,US,1562102647,26,36.9,-104.44,82.4,31.09
46,atambua,67,ID,1562102647,79,-9.11,124.89,78.2,11.36
47,klaksvik,0,FO,1562102648,75,62.23,-6.59,46.4,11.41
48,brae,44,GB,1562102648,81,60.4,-1.35,50.0,10.29
49,nara,40,JP,1562102648,100,34.68,135.8,73.99,3.36
50,kapaa,20,US,1562102113,70,22.08,-159.32,84.2,11.41
51,college,75,US,1562102649,45,64.86,-147.8,70.0,3.36
52,phibun mangsahan,100,TH,1562102649,92,15.24,105.23,73.7,18.16
53,chaumont,0,FR,1562102650,49,48.11,5.14,68.0,5.82
54,port alfred,44,ZA,1562102570,45,-33.59,26.89,69.01,7.0
55,ilulissat,75,GL,1562102650,28,69.22,-51.1,57.2,10.29
56,livingstonia,0,MW,1562102650,83,-10.61,34.11,54.62,2.75
57,hobart,75,AU,1562102099,75,-42.88,147.33,44.01,8.05
58,ixtapa,20,MX,1562102651,55,20.71,-105.21,89.01,16.11
59,khatanga,100,RU,1562102110,43,71.98,102.47,55.34,7.09
60,smithers,40,CA,1562102651,47,54.78,-127.17,78.8,4.7
61,tkibuli,0,GE,1562102652,93,42.35,43.0,66.2,2.24
62,bluff,0,AU,1562102112,84,-23.58,149.07,57.5,5.01
63,velingara,0,SN,1562102652,62,13.64,-16.01,87.8,9.17
64,kingsport,1,US,1562102653,57,36.55,-82.56,82.4,4.7
65,new norfolk,75,AU,1562102597,75,-42.78,147.06,44.01,8.05
66,mar del plata,79,AR,1562102653,75,-46.43,-67.52,37.16,9.48
67,reconquista,0,AR,1562102654,68,-29.14,-59.64,56.78,5.48
68,vila velha,20,BR,1562102654,78,-3.71,-38.6,80.6,11.41
69,samarinda,100,ID,1562102563,97,-0.5,117.14,74.6,2.51
70,paciran,99,ID,1562102655,88,-6.9,112.33,72.26,3.91
71,khao wong,100,TH,1562102655,93,16.69,104.09,71.72,12.68
72,umm kaddadah,100,SD,1562102655,48,13.6,26.69,83.6,10.6
73,tessalit,64,ML,1562102656,16,20.2,1.01,97.28,11.01
74,egvekinot,99,RU,1562102656,65,66.32,-179.17,54.08,6.89
75,mount isa,40,AU,1562102656,32,-20.73,139.49,53.6,6.93
76,constitucion,38,MX,1562102657,26,23.99,-104.67,81.0,5.99
77,mataura,77,NZ,1562102657,89,-46.19,168.86,46.0,4.23
78,kavaratti,100,IN,1562102657,80,10.57,72.64,83.42,18.37
79,derzhavinsk,71,KZ,1562102657,58,51.1,66.31,60.74,14.74
80,gravdal,40,NO,1562102658,76,59.79,5.78,51.8,18.34
81,shunyi,0,CN,1562102658,88,40.13,116.65,81.0,6.71
82,alofi,40,NU,1562102658,69,-19.06,-169.92,77.0,13.87
83,grand island,1,US,1562102563,55,40.92,-98.34,89.01,6.93
84,burns lake,77,CA,1562102659,30,54.23,-125.76,77.48,1.81
85,lagos,40,NG,1562102659,88,6.46,3.39,78.8,2.24
86,talnakh,0,RU,1562102659,48,69.49,88.39,60.8,6.71
87,alta floresta,0,BR,1562102660,38,-9.87,-56.08,89.6,3.36
88,vaini,100,IN,1562102582,85,15.34,74.49,78.02,6.11
89,makakilo city,40,US,1562102660,52,21.35,-158.09,87.8,10.29
90,tanout,30,NE,1562102660,13,14.97,8.88,98.18,3.22
91,faanui,85,PF,1562102636,81,-16.48,-151.75,77.48,29.59
92,fortuna,75,US,1562102541,59,40.6,-124.16,77.0,18.34
93,ikalamavony,2,MG,1562102661,58,-21.17,46.6,60.56,3.98
94,jamestown,0,AU,1562102035,91,-33.21,138.6,46.34,6.6
95,hithadhoo,100,MV,1562102566,78,-0.6,73.08,83.6,11.16
96,darhan,99,MN,1562102662,74,49.49,105.92,60.02,0.74
97,zabol,0,IR,1562102662,42,31.03,61.49,82.4,51.67
98,qaanaaq,0,GL,1562102108,44,77.48,-69.36,49.94,3.31
99,tuatapere,67,NZ,1562102663,89,-46.13,167.69,46.0,15.48
100,pangkalanbuun,84,ID,1562102663,99,-2.68,111.62,73.34,1.61
101,manitouwadge,75,CA,1562102663,88,49.12,-85.84,62.6,4.7
102,phalaborwa,0,ZA,1562102664,44,-23.95,31.14,59.0,2.24
103,shimoda,75,JP,1562102108,100,34.7,138.93,75.99,3.06
104,narsaq,90,GL,1562102120,70,60.91,-46.05,48.2,11.41
105,mahebourg,40,MU,1562102665,77,-20.41,57.7,69.8,3.36
106,boyolangu,98,ID,1562102665,96,-8.09,111.9,68.12,3.6
107,tonstad,75,NO,1562102665,81,58.66,6.71,50.0,9.17
108,orange walk,20,JM,1562102665,62,17.93,-76.27,87.8,19.46
109,eydhafushi,100,MV,1562102666,71,5.1,73.07,83.24,9.33
110,chokurdakh,100,RU,1562102110,73,70.62,147.9,45.98,7.94
111,leningradskiy,100,RU,1562102631,98,69.38,178.42,36.8,3.8
112,magadan,100,RU,1562102666,95,59.56,150.8,44.72,2.73
113,pitimbu,75,BR,1562102667,88,-7.47,-34.81,77.0,4.7
114,chumikan,100,RU,1562102667,84,54.72,135.31,49.76,3.06
115,vardo,1,US,1562102667,46,39.62,-77.74,93.99,11.41
116,morondava,18,MG,1562102668,82,-20.3,44.28,76.22,12.17
117,alberton,0,ZA,1562102668,64,-26.25,28.13,46.0,2.24
118,qasigiannguit,75,GL,1562102668,28,68.82,-51.19,57.2,10.29
119,barrow,41,AR,1562102111,59,-38.31,-60.23,43.46,18.05
120,nanpiao,0,CN,1562102669,78,41.1,120.75,62.72,4.05
121,whyalla,90,AU,1562102669,100,-33.04,137.58,44.6,5.82
122,carauari,78,BR,1562102669,77,-4.88,-66.9,79.82,4.36
123,dudinka,0,RU,1562102670,48,69.41,86.18,60.8,6.71
124,broome,20,GB,1562102670,72,52.47,1.45,62.6,1.12
125,mlandizi,0,TZ,1562102670,96,-6.71,38.74,68.66,2.33
126,alyangula,21,AU,1562102670,93,-13.85,136.42,57.2,7.58
127,bahar,0,IR,1562102671,48,34.91,48.44,66.2,2.24
128,quirinopolis,0,BR,1562102671,42,-18.45,-50.45,75.14,3.0
129,kuldiga,90,LV,1562102672,82,56.97,21.96,55.4,11.41
130,woodstock,90,CA,1562102432,83,43.13,-80.75,82.0,6.93
131,kodiak,1,US,1562102569,49,39.95,-94.76,93.99,8.05
132,port elizabeth,1,US,1562102672,46,39.31,-74.98,93.0,12.75
133,cockburn town,36,TC,1562102673,78,21.46,-71.14,82.16,5.41
134,upernavik,0,GL,1562102673,85,72.79,-56.15,40.76,8.23
135,praia da vitoria,75,PT,1562102673,78,38.73,-27.07,75.2,8.43
136,rafsanjan,0,IR,1562102674,36,30.4,55.99,74.24,12.06
137,voh,0,NC,1562102674,75,-20.95,164.69,69.74,6.2
138,zhanakorgan,0,KZ,1562102674,43,43.91,67.25,66.86,11.7
139,turayf,0,SA,1562102674,36,31.68,38.65,77.0,23.04
140,saldanha,0,PT,1562102675,31,41.42,-6.55,75.32,1.81
141,hasaki,75,JP,1562102675,100,35.73,140.83,71.6,3.36
142,de aar,0,ZA,1562102675,57,-30.65,24.01,41.3,5.28
143,bredasdorp,82,ZA,1562102398,63,-34.53,20.04,64.0,17.22
144,hofn,90,IS,1562102113,64,64.25,-15.21,41.66,8.14
145,ribeira grande,40,PT,1562102570,88,38.52,-28.7,71.6,9.17
146,kayerkan,0,RU,1562102676,48,69.35,87.76,60.8,6.71
147,vanimo,100,PG,1562102677,77,-2.67,141.3,80.36,6.42
148,luziania,0,BR,1562102677,33,-16.25,-47.95,77.0,4.7
149,torbay,75,CA,1562102677,88,47.66,-52.73,66.0,8.05
150,kualakapuas,99,ID,1562102678,92,-3.01,114.39,75.32,2.01
151,najran,40,SA,1562102678,15,17.54,44.22,87.8,2.86
152,saint-joseph,0,FR,1562102678,73,43.56,6.97,80.6,3.36
153,tokur,26,RU,1562102678,83,53.13,132.9,50.3,1.9
154,carnarvon,0,ZA,1562102679,51,-30.97,22.13,43.64,8.25
155,medea,0,DZ,1562102679,78,36.27,2.77,75.2,3.36
156,kaitangata,100,NZ,1562102679,80,-46.28,169.85,46.99,4.0
157,emba,0,CY,1562102680,56,34.81,32.42,80.6,4.7
158,bonavista,100,CA,1562102680,79,48.65,-53.11,55.0,1.01
159,caravelas,11,BR,1562102680,86,-17.73,-39.27,74.24,9.31
160,victoria,75,BN,1562102634,88,5.28,115.24,80.6,7.25
161,victoria point,40,AU,1562102681,93,-27.58,153.3,61.0,10.29
162,acajutla,0,SV,1562102596,72,13.59,-89.83,85.04,9.51
163,shenjiamen,100,CN,1562102681,96,29.96,122.3,76.04,4.18
164,bandarbeyla,82,SO,1562102682,65,9.49,50.81,79.28,28.14
165,butaritari,65,KI,1562102587,69,3.07,172.79,84.5,5.21
166,sao joao da barra,0,BR,1562102430,65,-21.64,-41.05,78.8,6.93
167,gidole,100,ET,1562102683,75,5.65,37.37,73.52,3.11
168,lagoa,0,PT,1562102118,57,37.14,-8.45,75.2,10.29
169,placido de castro,72,BR,1562102683,55,-10.34,-67.19,86.3,3.51
170,kalianget,99,ID,1562102684,94,-7.35,109.91,71.18,0.45
171,cidreira,0,BR,1562102684,65,-30.17,-50.22,52.64,1.01
172,suntar,0,RU,1562102684,63,62.16,117.65,48.68,7.34
173,castro,90,CL,1562102685,81,-42.48,-73.76,44.6,5.82
174,puerto escondido,40,MX,1562102685,70,15.86,-97.07,86.0,3.36
175,port macquarie,90,AU,1562102685,93,-31.43,152.91,46.4,2.64
176,vestmannaeyjar,100,IS,1562102686,82,63.44,-20.27,50.66,8.25
177,hsinchu,75,TW,1562102566,94,24.8,120.97,80.6,5.82
178,sur,0,OM,1562102686,57,22.57,59.53,86.3,9.44
179,nabire,98,ID,1562102687,98,-3.36,135.5,69.38,3.85
180,bowen,0,AU,1562102687,100,-20.01,148.25,66.0,3.36
181,severo-kurilsk,100,RU,1562102687,96,50.68,156.12,42.56,6.11
182,sitka,13,US,1562102647,59,37.17,-99.65,84.99,7.0
183,soma,75,JP,1562102688,82,37.8,140.92,66.2,1.12
184,paramonga,66,PE,1562102688,91,-10.68,-77.82,61.64,16.31
185,flinders,40,AU,1562102688,61,-34.58,150.85,51.01,8.05
186,sao filipe,95,CV,1562102570,82,14.9,-24.5,73.7,19.91
187,luena,0,AO,1562102689,43,-11.78,19.91,53.36,3.83
188,phra pradaeng,75,TH,1562102422,88,13.66,100.53,78.8,4.7
189,geraldton,75,CA,1562102689,30,49.72,-86.95,84.2,11.41
190,ostrovnoy,68,RU,1562102690,74,68.05,39.51,50.48,9.31
191,hirado,100,JP,1562102690,100,33.32,129.49,71.01,3.36
192,pouembout,0,NC,1562102690,75,-21.12,164.9,69.74,6.2
193,hereford,47,GB,1562102691,72,52.06,-2.72,60.01,5.53
194,arraial do cabo,0,BR,1562102534,88,-22.97,-42.02,75.2,4.7
195,kasempa,24,ZM,1562102662,40,-13.46,25.83,56.06,4.25
196,te anau,6,NZ,1562102569,76,-45.41,167.72,47.96,9.22
197,kaniama,7,CD,1562102692,43,-7.57,24.18,69.2,4.34
198,airai,76,TL,1562102692,85,-8.93,125.41,70.1,3.31
199,oromocto,75,CA,1562102692,64,45.85,-66.47,75.0,3.36
200,high level,75,CA,1562102592,34,58.52,-117.13,68.0,21.92
201,buala,40,SB,1562102649,82,-8.15,159.59,80.36,8.28
202,barcelona,20,ES,1562102693,83,41.38,2.18,79.0,2.24
203,bognor regis,0,GB,1562102693,58,50.78,-0.67,64.0,10.29
204,vadso,75,NO,1562102693,87,70.07,29.75,55.4,13.87
205,coihaique,90,CL,1562102694,99,-45.58,-72.07,42.8,1.3
206,san patricio,100,PY,1562102675,86,-26.98,-56.83,59.3,2.08
207,san francisco de becerra,100,HN,1562102694,44,14.63,-86.1,85.04,7.56
208,los llanos de aridane,90,ES,1562102695,73,28.66,-17.92,71.6,19.46
209,baruun-urt,5,MN,1562102695,59,46.68,113.28,60.74,4.5
210,honningsvag,75,NO,1562102695,87,70.98,25.97,48.2,4.7
211,poya,0,NC,1562102696,71,-21.35,165.16,71.0,6.29
212,lebu,75,ET,1562102413,82,8.96,38.73,60.8,4.7
213,kavieng,13,PG,1562102696,77,-2.57,150.8,83.42,14.97
214,norman wells,75,CA,1562102697,72,65.28,-126.83,60.8,12.75
215,pakokku,62,MM,1562102697,80,21.33,95.09,78.92,13.11
216,samarai,99,PG,1562102585,92,-10.62,150.67,72.08,6.11
217,xinzhi,75,TW,1562102698,100,22.54,120.62,78.8,8.05
218,turbat,55,PK,1562102698,79,26.0,63.05,81.62,1.12
219,jacqueville,20,CI,1562102698,88,5.21,-4.42,80.6,8.05
220,lorengau,25,PG,1562102698,84,-2.02,147.27,78.92,7.27
221,axim,44,GH,1562102699,90,4.87,-2.24,77.84,9.8
222,port-cartier,75,CA,1562102699,72,50.03,-66.88,60.8,6.93
223,manono,0,CD,1562102700,38,-7.3,27.4,69.56,1.05
224,thompson,90,CA,1562102119,59,55.74,-97.86,60.8,14.99
225,newport,95,GB,1562102700,62,51.59,-3.0,63.0,9.17
226,havoysund,75,NO,1562102525,87,71.0,24.66,46.4,4.7
227,marawi,100,PH,1562102701,88,8.0,124.29,75.0,4.0
228,lichinga,0,MZ,1562102701,82,-13.3,35.25,62.6,6.93
229,khani,0,GE,1562102701,93,41.96,42.96,66.2,2.24
230,esperance,90,AU,1562102119,76,-33.86,121.89,51.8,6.93
231,cherskiy,32,RU,1562102669,56,68.75,161.3,52.1,15.9
232,ancud,90,CL,1562102702,81,-41.87,-73.83,44.6,5.82
233,salalah,75,OM,1562102702,94,17.01,54.1,82.4,9.17
234,namatanai,71,PG,1562102702,86,-3.66,152.44,78.74,14.88
235,san quintin,100,PH,1562102703,88,17.54,120.52,74.78,4.09
236,eyl,0,SO,1562102117,62,7.98,49.82,78.56,26.04
237,navalmoral de la mata,0,ES,1562102704,29,39.89,-5.54,77.0,3.42
238,joshimath,0,IN,1562102704,68,30.57,79.57,55.16,3.2
239,souris,75,CA,1562102704,100,46.36,-62.25,57.2,8.05
240,padilla,75,CO,1562102704,51,3.23,-76.31,84.2,12.75
241,rawson,64,AR,1562102705,72,-43.3,-65.11,39.14,19.93
242,erenhot,0,CN,1562102705,37,43.65,111.97,68.66,1.61
243,ottawa,75,CA,1562102416,39,45.42,-75.69,86.0,11.41
244,holoby,0,UA,1562102706,57,51.09,25.02,64.0,8.39
245,ucluelet,90,CA,1562102624,93,48.94,-125.55,70.0,6.93
246,arvi,100,IN,1562102706,80,21.0,78.23,78.56,15.84
247,sorland,40,NO,1562102707,87,67.67,12.69,46.4,5.82
248,rjukan,67,NO,1562102707,85,59.88,8.59,51.01,20.0
249,kurchum,54,KZ,1562102707,72,48.57,83.65,55.16,8.61
250,bathsheba,40,BB,1562102707,62,13.22,-59.52,86.0,17.22
251,kampong thum,100,KH,1562102708,76,12.71,104.89,79.82,18.12
252,iqaluit,20,CA,1562102666,65,63.75,-68.52,46.4,9.17
253,pevek,90,RU,1562102576,96,69.7,170.27,36.08,12.03
254,balaipungut,95,ID,1562102709,85,1.11,101.31,75.32,0.78
255,longyearbyen,75,NO,1562102111,75,78.22,15.63,46.4,12.75
256,orotukan,99,RU,1562102709,68,62.26,151.67,60.2,6.15
257,karratha,21,AU,1562102455,39,-20.74,116.85,62.18,2.01
258,isangel,75,VU,1562102710,100,-19.55,169.27,66.2,6.17
259,saint-philippe,1,CA,1562102513,37,45.36,-73.48,86.0,16.11
260,saint-georges,0,CA,1562102710,53,46.12,-70.67,79.0,5.99
261,saskylakh,1,RU,1562102120,66,71.97,114.09,44.54,6.38
262,westport,75,US,1562102652,57,41.14,-73.36,84.99,11.41
263,katherine,41,AU,1562102711,76,-14.47,132.26,51.8,5.82
264,solginskiy,74,RU,1562102711,98,61.05,41.34,51.74,3.47
265,ottumwa,20,US,1562102603,52,41.02,-92.41,93.2,10.29
266,huancavelica,0,PE,1562102712,32,-12.79,-74.97,47.96,5.88
267,areosa,0,PT,1562102712,77,41.72,-8.86,73.99,6.93
268,guerrero negro,0,MX,1562102712,79,27.97,-114.04,69.38,16.02
269,nome,1,US,1562102686,83,30.04,-94.42,84.99,5.82
270,prieska,0,ZA,1562102713,50,-29.67,22.74,44.54,6.15
271,maceio,40,BR,1562102421,78,-9.67,-35.74,75.2,4.7
272,sabha,0,LY,1562102713,15,27.03,14.43,87.02,7.14
273,siderno,5,IT,1562102714,78,38.28,16.3,80.6,4.7
274,tazmalt,20,DZ,1562102714,94,36.39,4.4,73.4,2.24
275,vila franca do campo,20,PT,1562102714,94,37.72,-25.43,68.0,13.87
276,bethel,75,US,1562102715,82,60.79,-161.76,57.2,20.8
277,sakaiminato,75,JP,1562102715,94,35.55,133.23,69.8,3.36
278,dunedin,100,NZ,1562102652,78,-45.87,170.5,52.28,8.77
279,scarborough,30,GB,1562102716,72,54.28,-0.41,62.01,4.7
280,sayyan,92,YE,1562102716,62,15.17,44.32,76.4,1.79
281,chatham,20,CA,1562102716,46,42.41,-82.19,91.99,11.41
282,heihe,90,RU,1562102658,100,50.24,127.51,57.2,2.24
283,bintulu,75,MY,1562102717,100,3.17,113.03,77.0,2.24
284,saint george,0,GR,1562102717,57,39.45,22.34,75.2,2.71
285,karatsu,75,JP,1562102718,94,33.45,129.97,73.0,2.24
286,dzhebariki-khaya,90,RU,1562102718,80,62.22,135.8,52.64,3.56
287,kedrovyy,20,RU,1562102718,87,56.17,91.82,59.0,2.24
288,lazurne,26,UA,1562102719,79,46.77,34.99,69.74,7.74
289,port lincoln,5,AU,1562102423,76,-34.72,135.86,58.22,8.68
290,gimli,44,CA,1562102719,30,50.63,-96.99,77.0,8.99
291,floro,40,NO,1562102648,75,61.6,5.03,46.4,12.75
292,caraz,9,PE,1562102720,67,-9.05,-77.81,57.5,6.96
293,saint-pierre,0,FR,1562102720,67,48.95,4.24,68.0,9.17
294,vostok,74,RU,1562102605,92,46.45,135.83,57.5,2.51
295,den helder,40,NL,1562102689,72,52.96,4.76,60.01,14.99
296,bongouanou,100,CI,1562102721,93,6.65,-4.2,76.4,4.38
297,antofagasta,90,CL,1562102721,82,-23.65,-70.4,55.4,11.41
298,warren,40,US,1562102436,36,42.48,-83.03,91.99,9.17
299,devils lake,1,US,1562102722,69,48.11,-98.87,73.4,11.41
300,port hedland,5,AU,1562102695,54,-20.31,118.58,57.2,3.36
301,souillac,0,FR,1562102722,60,45.6,-0.6,75.2,5.82
302,hamilton,90,CA,1562102473,94,43.26,-79.87,81.0,2.24
303,kununurra,34,AU,1562102723,71,-15.77,128.74,55.4,3.36
304,terrace bay,75,CA,1562102723,88,48.78,-87.1,62.6,4.7
305,beckley,40,US,1562102723,61,37.78,-81.19,84.99,4.7
306,partapur,80,IN,1562102723,81,23.59,74.18,80.54,11.05
307,ipixuna,75,BR,1562102724,70,-1.76,-48.8,84.2,6.93
308,harrogate,40,AU,1562102724,93,-34.95,139.01,53.01,1.12
309,poum,0,MK,1562102570,55,41.28,20.71,63.98,2.42
310,aklavik,40,CA,1562102725,59,68.22,-135.01,60.8,6.93
311,maragogi,54,BR,1562102725,92,-9.01,-35.22,72.26,4.34
312,caibarien,75,CU,1562102725,55,22.52,-79.47,89.6,9.17
313,clyde river,90,CA,1562102726,93,70.47,-68.59,35.6,20.8
314,dikson,100,RU,1562102726,97,73.51,80.55,37.16,6.91
315,san diego de la union,46,MX,1562102726,41,21.47,-100.87,80.01,5.01
316,aksarka,0,RU,1562102727,63,66.56,67.8,64.7,7.18
317,doka,89,SD,1562102727,66,13.52,35.76,82.52,7.54
318,celestun,100,MX,1562102727,82,20.87,-90.4,82.34,17.54
319,arman,100,RU,1562102727,90,59.7,150.17,49.58,4.27
320,elat,100,CM,1562102728,99,2.91,11.16,68.66,2.37
321,bichura,59,RU,1562102728,72,50.59,107.6,59.12,3.51
322,novaya igirma,9,RU,1562102728,63,57.14,103.93,64.52,5.08
323,timra,0,SE,1562102729,57,62.49,17.33,54.0,5.82
324,igaci,28,BR,1562102729,82,-9.54,-36.64,72.26,9.89
325,camapua,0,BR,1562102729,50,-19.53,-54.04,73.16,7.76
326,grindavik,0,IS,1562102730,76,63.84,-22.43,55.4,11.41
327,yumen,34,CN,1562102730,24,40.29,97.04,75.5,3.47
328,plettenberg bay,94,ZA,1562102730,51,-34.05,23.37,62.36,5.3
329,lexington,1,US,1562102581,55,38.05,-84.5,91.99,6.93
330,synya,76,RU,1562102731,85,65.37,58.04,58.94,5.26
331,yerbogachen,67,RU,1562102731,64,61.28,108.01,54.62,6.53
332,north bend,90,US,1562102731,63,43.41,-124.22,73.0,10.29
333,palpa,5,PE,1562102654,67,-14.53,-75.19,63.08,12.55
334,pyapon,100,MM,1562102732,88,16.29,95.68,78.92,4.38
335,bereda,75,ES,1562102732,88,43.27,-7.54,62.6,6.93
336,bubaque,30,GW,1562102614,85,11.28,-15.83,80.72,13.09
337,beitbridge,0,ZA,1562102733,27,-22.21,29.99,54.8,8.34
338,niamey,0,NE,1562102733,41,13.52,2.11,91.4,10.29
339,altoona,75,US,1562102733,77,40.52,-78.39,84.2,8.05
340,biak,99,ID,1562102733,95,-0.91,122.88,62.72,2.55
341,nemuro,100,JP,1562102734,97,43.32,145.57,54.8,5.21
342,paamiut,0,GL,1562102734,87,61.99,-49.67,39.14,16.17
343,alphen,0,NL,1562102735,59,51.82,5.47,64.4,2.24
344,junin,0,PE,1562102735,27,-16.45,-71.58,62.6,6.93
345,ishigaki,100,JP,1562102554,81,24.34,124.16,84.32,27.89
346,quatre cocos,40,MU,1562102586,77,-20.21,57.76,69.8,3.36
347,padang,97,ID,1562102736,80,-0.92,100.36,81.08,8.61
348,tianpeng,60,CN,1562102736,81,28.88,112.34,72.8,3.69
349,port shepstone,12,ZA,1562102736,37,-30.74,30.45,54.98,6.22
350,seoni malwa,99,IN,1562102737,72,22.45,77.47,81.98,14.16
351,porto belo,75,BR,1562102737,93,-27.15,-48.54,61.0,3.36
352,bako,49,BF,1562102738,38,12.29,-0.73,93.68,11.54
353,aasiaat,30,GL,1562102738,77,68.71,-52.87,40.4,12.17
354,srednekolymsk,100,RU,1562102571,66,67.46,153.71,52.28,13.31
355,markova,0,RU,1562102739,93,52.21,104.21,60.8,4.47
356,abu dhabi,0,AE,1562102606,62,24.47,54.37,91.4,5.82
357,dukat,0,AL,1562102739,50,40.25,19.57,78.01,1.01
358,kutum,100,SD,1562102739,60,14.2,24.66,76.04,9.6
359,khandyga,97,RU,1562102740,84,62.65,135.58,53.36,5.66
360,mecca,0,SA,1562102693,63,21.43,39.83,79.28,5.91
361,seoul,90,KR,1562102539,83,37.57,126.98,71.6,3.36
362,meadow lake,75,CA,1562102741,59,54.13,-108.44,62.6,20.8
363,saint anthony,1,US,1562102741,32,43.97,-111.68,81.0,10.29
364,yar-sale,0,RU,1562102742,53,66.83,70.83,65.96,8.46
365,azul,64,AR,1562102529,52,-36.78,-59.86,46.99,3.0
366,fairbanks,75,US,1562102742,45,64.84,-147.72,70.0,3.36
367,la seyne-sur-mer,0,FR,1562102742,88,43.1,5.88,78.8,5.28
368,shenzhen,40,CN,1562102727,100,22.54,114.05,80.6,9.17
369,goderich,98,CA,1562102743,91,43.74,-81.71,72.0,7.0
370,la macarena,87,CO,1562102743,85,2.18,-73.79,75.32,2.3
371,tautira,75,PF,1562102743,61,-17.73,-149.15,82.0,5.82
372,senador jose porfirio,100,BR,1562102744,76,-2.59,-51.95,82.88,3.11
373,yarmouth,75,CA,1562102744,77,43.84,-66.12,64.0,7.47
374,phalodi,50,IN,1562102744,45,27.13,72.36,93.5,22.7
375,gwadar,100,PK,1562102745,76,25.12,62.33,85.22,8.23
376,iskateley,100,RU,1562102745,96,67.68,53.15,57.86,8.01
377,harper,40,US,1562102745,45,30.3,-99.24,90.0,10.29
378,warrington,0,GB,1562102746,67,53.39,-2.59,60.8,9.17
379,kolpashevo,77,RU,1562102746,84,58.31,82.9,62.36,3.78
380,inirida,8,CO,1562102746,72,3.87,-67.92,82.34,4.0
381,kudahuvadhoo,100,MV,1562102747,68,2.67,72.89,83.42,7.0
382,teahupoo,75,PF,1562102747,61,-17.83,-149.27,82.0,5.82
383,saryozek,0,KZ,1562102747,32,44.36,77.98,69.02,0.58
384,kaabong,68,UG,1562102748,86,3.51,34.14,64.34,0.83
385,sambava,56,MG,1562102748,96,-14.27,50.17,65.24,3.18
386,labuhan,100,ID,1562102748,84,-2.54,115.51,75.86,1.61
387,hylkje,75,NO,1562102527,87,60.51,5.35,48.99,24.16
388,deer lake,90,CA,1562102749,93,49.18,-57.43,46.4,12.75
389,washington,75,US,1562102591,46,38.9,-77.04,95.0,12.75
390,miyako,75,JP,1562102750,94,33.63,130.94,73.4,2.24
391,peniche,90,PT,1562102750,88,39.36,-9.38,64.99,4.7
392,manuk mangkaw,100,PH,1562102751,72,4.8,119.85,82.52,4.36
393,orcopampa,0,PE,1562102751,49,-15.27,-72.34,44.18,7.49
394,mantua,40,IT,1562102751,50,45.16,10.79,84.0,16.11
395,ahipara,95,NZ,1562102752,89,-35.17,173.16,62.0,16.8
396,shubarkuduk,67,KZ,1562102752,61,49.15,56.49,60.74,10.54
397,lagdo,0,CM,1562102752,83,9.06,13.67,82.4,3.74
398,tokonou,97,GN,1562102752,95,9.65,-9.78,72.26,1.14
399,belaya gora,48,RU,1562102753,69,68.54,146.19,54.8,10.27
400,zarasai,26,LT,1562102753,81,55.73,26.25,53.36,12.73
401,rabo de peixe,40,PT,1562102753,94,37.8,-25.58,68.0,13.87
402,adrar,15,DZ,1562102645,11,27.87,-0.29,105.8,12.75
403,poros,0,TR,1562102754,43,40.9,26.22,69.74,6.76
404,santiago del estero,0,AR,1562102754,51,-27.8,-64.26,62.72,10.51
405,roald,75,NO,1562102755,81,62.58,6.12,46.4,12.75
406,galle,100,GN,1562102755,98,10.08,-12.83,73.7,4.27
407,tromso,0,NO,1562102755,75,69.65,18.96,48.2,3.36
408,kindu,0,CD,1562102756,55,-2.95,25.92,74.24,2.48
409,weyburn,100,CA,1562102757,54,49.67,-103.85,64.99,10.0
410,new britain,1,US,1562102602,45,41.66,-72.78,86.0,5.82
411,emerald,90,AU,1562102757,67,-23.53,148.16,59.0,5.82
412,moose factory,75,CA,1562102758,57,51.26,-80.61,77.0,10.29
413,bam,0,IR,1562102709,23,29.11,58.36,74.24,5.53
414,ahuimanu,40,US,1562102758,78,21.44,-157.84,87.8,9.17
415,avera,1,US,1562102536,44,33.19,-82.53,99.0,4.85
416,mitsamiouli,0,KM,1562102759,76,-11.38,43.28,77.3,19.19
417,kamenka,62,MD,1562102759,92,48.03,28.7,66.99,5.37
418,mathathane,0,BW,1562102759,29,-22.27,28.75,51.92,6.2
419,lompoc,1,US,1562102759,56,34.64,-120.46,84.0,21.92
420,batemans bay,0,AU,1562102760,95,-35.71,150.18,43.0,4.0
421,tarakan,100,ID,1562102760,89,3.3,117.63,76.76,3.06
422,lavrentiya,100,RU,1562102760,95,65.58,-170.99,43.46,4.59
423,ramgarh,0,IN,1562102761,25,27.26,75.18,92.06,2.68
424,bela vista,92,BR,1562102761,51,-22.11,-56.53,78.02,5.08
425,faya,20,SA,1562102639,41,18.39,42.45,78.8,1.7
426,terney,100,RU,1562102761,98,45.05,136.61,49.4,1.95
427,riyadh,0,SA,1562102641,14,24.63,46.72,95.0,9.17
428,moyobamba,13,PE,1562102762,64,-6.03,-76.97,78.74,3.98
429,kysyl-syr,70,RU,1562102762,64,63.9,122.77,48.14,14.41
430,iwanai,100,JP,1562102762,98,42.97,140.51,55.52,2.62
431,kamiiso,92,JP,1562102763,93,41.82,140.65,57.68,2.19
432,muisne,75,EC,1562102763,70,0.61,-80.02,86.0,8.05
433,pizhanka,57,RU,1562102763,87,57.46,48.54,54.8,6.73
434,dezhou,27,CN,1562102764,64,37.45,116.31,73.52,5.84
435,udachnyy,75,RU,1562102764,80,66.42,112.4,41.0,8.95
436,zhigansk,95,RU,1562102764,71,66.77,123.37,46.7,23.67
437,zhicheng,13,CN,1562102765,44,35.04,112.59,76.76,2.57
438,bundaberg,1,AU,1562102765,87,-24.87,152.35,59.0,6.93
439,namibe,0,AO,1562102765,80,-15.19,12.15,69.74,5.5
440,wanaka,63,NZ,1562102589,89,-44.7,169.14,46.99,1.01
441,zurrieq,0,MT,1562102766,78,35.83,14.47,77.0,5.82
442,phalombe,52,MW,1562102766,81,-15.81,35.65,63.62,5.7
443,elliot lake,1,CA,1562102766,50,46.37,-82.65,78.8,9.17
444,faenza,0,IT,1562102767,83,44.29,11.88,82.99,2.24
445,yining,8,CN,1562102767,94,29.04,114.56,68.12,0.76
446,bambous virieux,40,MU,1562102767,77,-20.34,57.76,69.8,3.36
447,sola,0,TZ,1562102768,70,-3.17,33.8,65.96,3.36
448,half moon bay,75,US,1562102768,82,37.46,-122.43,73.4,10.29
449,tiznit,0,MA,1562102768,86,29.7,-9.73,66.14,13.2
450,baran,2,IN,1562102769,44,25.1,76.52,91.7,10.65
451,talara,0,PE,1562102659,290,-4.58,-81.27,62.6,14.99
452,sivas,0,TR,1562102769,66,39.75,37.01,55.4,3.36
453,gidam,100,IN,1562102769,96,18.98,81.4,73.52,10.11
454,qaqortoq,90,GL,1562102770,70,60.72,-46.03,48.2,11.41
455,otjiwarongo,0,NA,1562102770,23,-20.46,16.65,53.6,3.36
456,lang son,100,VN,1562102771,96,21.83,106.73,74.24,3.6
457,villa rica,75,CO,1562102771,51,3.18,-76.46,84.2,12.75
458,verkhnevilyuysk,91,RU,1562102771,61,63.45,120.31,49.94,10.02
459,dingle,44,PH,1562102571,84,11.0,122.67,73.88,2.42
460,irtyshskiy,81,RU,1562102772,82,58.33,68.13,60.92,8.72
461,muzhi,0,RU,1562102772,56,65.4,64.7,62.72,5.82
462,wagar,61,US,1562102772,63,31.44,-87.99,90.0,3.0
463,saint-paul,0,FR,1562102773,93,45.22,1.9,71.01,3.36
464,willowmore,76,ZA,1562102773,62,-33.3,23.49,51.38,6.53
465,tura,14,RU,1562102773,60,64.27,100.22,56.24,3.4
466,niederkruchten,0,DE,1562102774,51,51.2,6.22,66.0,8.05
467,rocha,100,UY,1562102774,74,-34.48,-54.34,50.12,14.97
468,hami,34,CN,1562102774,20,42.84,93.51,85.04,8.43
469,kon tum,100,VN,1562102775,99,14.36,108.0,67.58,3.94
470,batagay-alyta,100,RU,1562102571,94,67.8,130.41,35.9,6.15
471,novoseleznevo,100,RU,1562102775,95,55.68,69.21,58.94,12.17
472,florianopolis,75,BR,1562102750,93,-27.6,-48.55,61.0,1.52
473,hidalgo,40,US,1562102776,55,26.1,-98.26,96.01,17.22
474,sume,40,RS,1562102776,78,43.62,20.22,71.6,2.24
475,bosobolo,75,CD,1562102776,92,4.19,19.88,73.34,3.8
476,kitob,90,UZ,1562102777,46,39.12,66.88,73.4,2.24
477,puerto madryn,94,AR,1562102777,80,-42.77,-65.04,39.86,22.68
478,turukhansk,43,RU,1562102777,67,65.8,87.96,63.08,5.03
479,bahia honda,0,CU,1562102777,72,22.9,-83.16,84.5,10.8
480,hambantota,100,LK,1562102778,83,6.12,81.12,82.34,19.01
481,vangaindrano,0,MG,1562102778,95,-23.35,47.6,63.26,5.08
482,suicheng,100,CN,1562102778,70,33.9,117.93,76.04,4.56
483,koping,99,SE,1562102568,50,59.51,15.99,59.0,3.36
484,pineville,90,US,1562102779,88,31.32,-92.43,91.99,4.7
485,cabo san lucas,5,MX,1562102514,58,22.89,-109.91,93.99,5.82
486,yongan,0,CN,1562102779,60,39.7,113.69,60.38,0.2
487,sangar,2,RU,1562102780,62,63.92,127.47,51.02,5.99
488,nouadhibou,0,MR,1562102583,82,20.93,-17.03,68.0,17.22
489,camopi,100,GF,1562102780,97,3.17,-52.33,71.72,1.57
490,xai-xai,0,MZ,1562102781,90,-25.04,33.64,60.38,2.08
491,elko,1,US,1562102655,15,40.83,-115.76,84.99,8.05
492,mayo,90,CA,1562102781,43,63.59,-135.9,71.6,3.36
493,ambon,0,FR,1562102781,72,47.55,-2.56,66.99,14.99
494,luderitz,0,NA,1562102782,67,-26.65,15.16,57.2,14.99
495,hualmay,21,PE,1562102782,88,-11.1,-77.61,62.9,19.26
496,abnub,0,EG,1562102782,30,27.27,31.15,84.2,6.93
497,bakuriani,0,GE,1562102783,58,41.75,43.53,54.8,5.91
498,sibolga,100,ID,1562102783,77,1.74,98.78,81.62,3.58
499,zorritos,75,PE,1562102783,33,-3.68,-80.68,89.6,9.17
500,potiskum,100,NG,1562102783,64,11.71,11.08,82.7,15.79
501,coahuayana,0,MX,1562102784,52,18.62,-100.35,89.9,2.15
502,kurumkan,0,RU,1562102646,63,54.33,110.32,55.16,1.5
503,springbok,0,ZA,1562102784,54,-29.67,17.88,51.92,2.82
504,redmond,90,US,1562102655,72,47.67,-122.12,61.0,6.93
505,petropavlovsk-kamchatskiy,90,RU,1562102679,100,53.05,158.65,46.4,2.24
506,aygut,0,AM,1562102785,71,40.68,45.17,51.38,4.88
507,severodvinsk,40,RU,1562102785,93,64.56,39.82,53.6,4.47
508,piterka,57,RU,1562102786,84,50.68,47.44,66.86,13.24
509,great yarmouth,0,GB,1562102786,72,52.61,1.73,59.0,1.12
510,chapais,1,CA,1562102668,40,49.78,-74.86,73.4,12.75
511,inuvik,75,CA,1562102787,62,68.36,-133.71,60.8,11.41
512,khaniotis,0,GR,1562102787,78,40.0,23.58,75.99,4.88
513,necochea,95,AR,1562102787,87,-38.55,-58.74,41.0,11.01
514,moyale,12,ET,1562102787,53,3.52,39.05,71.72,5.03
515,coquimbo,0,CL,1562102788,87,-29.95,-71.34,51.8,9.17
516,champerico,57,MX,1562102788,68,16.38,-93.6,83.42,2.44
517,eastbourne,20,GB,1562102788,62,54.52,-1.53,60.01,9.17
518,pandan,100,PH,1562102789,76,11.72,122.09,81.44,2.64
519,nakusp,100,CA,1562102789,89,50.24,-117.8,53.9,4.23
520,berlevag,75,NO,1562102789,93,70.86,29.09,48.2,11.41
521,northam,0,AU,1562102790,76,-31.65,116.67,55.4,10.29
522,yabrud,0,SY,1562102790,56,33.97,36.66,71.6,23.04
523,camacha,40,PT,1562102790,68,33.08,-16.33,69.8,16.11
524,paralimni,0,GR,1562102791,58,40.99,23.67,84.0,0.83
525,blois,0,FR,1562102791,49,47.59,1.33,71.6,6.93
526,walvis bay,0,NA,1562102791,33,-22.95,14.51,73.4,4.7
527,sokoto,35,NG,1562102792,54,13.06,5.24,89.0,13.18
528,kabare,13,RW,1562102792,74,-1.65,29.38,55.7,1.03
529,litovko,81,RU,1562102792,87,49.24,135.18,60.38,2.19
530,chara,0,GR,1562102793,57,39.42,22.43,75.2,2.71
531,zarechnyy,100,RU,1562102793,97,60.99,40.4,53.36,0.58
532,boda,47,CF,1562102793,93,4.32,17.47,69.74,2.42
533,la ronge,75,CA,1562102793,76,55.1,-105.3,55.4,23.04
534,arica,90,CL,1562102794,87,-18.48,-70.32,59.0,9.17
535,eldorado,100,BR,1562102794,75,-24.52,-48.11,69.56,3.36
536,jega,42,NG,1562102794,57,12.22,4.38,88.82,12.37
537,chengde,0,CN,1562102795,75,40.97,117.93,60.92,1.72
538,salym,0,RU,1562102795,82,60.06,71.48,61.28,4.83
539,kaspiyskiy,0,RU,1562102568,46,45.39,47.37,79.82,11.7
540,sao jose da coroa grande,54,BR,1562102648,92,-8.9,-35.15,72.26,4.34
541,dom pedrito,0,BR,1562102775,48,-30.98,-54.67,60.8,8.05
542,mogadishu,30,SO,1562102796,78,2.04,45.34,75.86,14.63
543,cayenne,100,GF,1562102796,94,4.94,-52.33,77.0,6.93
544,amga,100,RU,1562102796,64,60.89,131.98,48.86,6.13
545,sebu,96,PH,1562102797,84,6.22,124.69,75.5,3.33
546,deputatskiy,67,RU,1562102797,77,69.3,139.9,43.1,9.19
547,smirnykh,97,RU,1562102797,94,49.74,142.83,46.7,2.42
548,petukhovo,100,RU,1562102798,96,55.06,67.89,59.48,6.96
549,rio gallegos,75,AR,1562102798,83,-51.62,-69.22,35.6,6.93
550,fort nelson,75,CA,1562102798,37,58.81,-122.69,68.0,4.7
551,prince rupert,1,CA,1562102799,82,54.32,-130.32,60.8,6.93
552,aboso,53,GH,1562102799,95,5.36,-1.95,74.6,4.12
553,damaturu,100,NG,1562102799,58,11.75,11.96,85.04,18.34
554,smidovich,32,RU,1562102800,95,48.6,133.81,60.74,5.7
555,gusau,96,NG,1562102800,68,12.17,6.66,81.44,10.96
556,nalut,0,LY,1562102800,55,31.86,10.98,73.7,20.89
557,vaitape,85,PF,1562102800,81,-16.52,-151.75,77.48,29.59
558,traverse city,90,US,1562102659,83,44.76,-85.62,77.0,4.34
559,kotovo,59,RU,1562102801,83,50.32,44.8,65.42,9.69
